[
    {
      "id": 1,
      "name": "Hope Recovery Center",
      "address": "Mumbai, Maharashtra",
      "lat": 19.076,
      "lng": 72.8777,
      "image": "images/rehabcenter.png",
      "website": "https://www.hoperecoverymumbai.com",
      "phone": "+919876543210"
    },
    {
      "id": 2,
      "name": "New Life Rehab",
      "address": "Delhi",
      "lat": 28.7041,
      "lng": 77.1025,
      "image": "https://source.unsplash.com/400x300/?clinic,healthcare",
      "website": "https://www.newliferehabdelhi.com",
      "phone": "+919812345678"
    },
    {
      "id": 3,
      "name": "Phoenix Rehab Center",
      "address": "Bangalore, Karnataka",
      "lat": 12.9716,
      "lng": 77.5946,
      "image": "https://source.unsplash.com/400x300/?doctor,hospital",
      "website": "https://www.phoenixrehab.in",
      "phone": "+919876512340"
    },
    {
      "id": 4,
      "name": "Sunrise De-addiction Centre",
      "address": "Chennai, Tamil Nadu",
      "lat": 13.0827,
      "lng": 80.2707,
      "image": "https://source.unsplash.com/400x300/?medical,clinic",
      "website": "https://www.sunriserehabchennai.com",
      "phone": "+919865432189"
    },
    {
      "id": 5,
      "name": "Serenity Wellness",
      "address": "Hyderabad, Telangana",
      "lat": 17.385,
      "lng": 78.4867,
      "image": "https://source.unsplash.com/400x300/?hospital,building",
      "website": "https://www.serenityhyderabad.com",
      "phone": "+919745612340"
    },
    {
      "id": 6,
      "name": "Sukoon Recovery",
      "address": "Pune, Maharashtra",
      "lat": 18.5204,
      "lng": 73.8567,
      "image": "https://source.unsplash.com/400x300/?clinic,doctor",
      "website": "https://www.sukoonpune.com",
      "phone": "+919832145678"
    },
    {
      "id": 7,
      "name": "White Lotus Recovery",
      "address": "Jaipur, Rajasthan",
      "lat": 26.9124,
      "lng": 75.7873,
      "image": "https://source.unsplash.com/400x300/?health,hospital",
      "website": "https://www.whitelotusjaipur.com",
      "phone": "+919876543218"
    },
    {
      "id": 8,
      "name": "Healing Hands Rehab",
      "address": "Kolkata, West Bengal",
      "lat": 22.5726,
      "lng": 88.3639,
      "image": "https://source.unsplash.com/400x300/?clinic,care",
      "website": "https://www.healinghandskolkata.com",
      "phone": "+919876514320"
    },
    {
      "id": 9,
      "name": "Nirvana Recovery Centre",
      "address": "Ahmedabad, Gujarat",
      "lat": 23.0225,
      "lng": 72.5714,
      "image": "https://source.unsplash.com/400x300/?medical,hospital",
      "website": "https://www.nirvanaahmedabad.com",
      "phone": "+919874563210"
    },
    {
      "id": 10,
      "name": "Tranquil Life Center",
      "address": "Lucknow, Uttar Pradesh",
      "lat": 26.8467,
      "lng": 80.9462,
      "image": "https://source.unsplash.com/400x300/?clinic,patients",
      "website": "https://www.tranquillucknow.com",
      "phone": "+919856341290"
    },
    {
      "id": 11,
      "name": "Sewa De-addiction Center",
      "address": "Bhopal, Madhya Pradesh",
      "lat": 23.2599,
      "lng": 77.4126,
      "image": "https://source.unsplash.com/400x300/?healthcare,therapy",
      "website": "https://www.sewabhopal.com",
      "phone": "+919764512398"
    },
    {
      "id": 12,
      "name": "Grace Recovery Home",
      "address": "Chandigarh",
      "lat": 30.7333,
      "lng": 76.7794,
      "image": "https://source.unsplash.com/400x300/?hospital,rehabilitation",
      "website": "https://www.gracechandigarh.com",
      "phone": "+919784563219"
    },
    {
      "id": 13,
      "name": "Revive Wellness Center",
      "address": "Patna, Bihar",
      "lat": 25.5941,
      "lng": 85.1376,
      "image": "https://source.unsplash.com/400x300/?therapy,medical",
      "website": "https://www.revivepatna.com",
      "phone": "+919768542310"
    },
    {
      "id": 14,
      "name": "Vardan Drug Rehab",
      "address": "Nagpur, Maharashtra",
      "lat": 21.1458,
      "lng": 79.0882,
      "image": "https://source.unsplash.com/400x300/?doctor,care",
      "website": "https://www.vardannagpur.com",
      "phone": "+919784561230"
    },
    {
      "id": 15,
      "name": "LifeSpring Recovery",
      "address": "Visakhapatnam, Andhra Pradesh",
      "lat": 17.6868,
      "lng": 83.2185,
      "image": "https://source.unsplash.com/400x300/?clinic,hospital",
      "website": "https://www.lifespringvizag.com",
      "phone": "+919732165498"
    }
  ]
  